{
    "Sheet1": [
        {
            "category_id": "1",
            "name": "솔빛마루",
            "address": "광주 서구 상무자유로 24-2",
            "phone": "062-417-0511",
            "stroller": "○",
            "baby_chair": "○",
            "lat": "35.151183",
            "lon": "126.8367154"
        },
        {
            "category_id": "1",
            "name": "싱무초밥 상무점",
            "address": "광주 서구 운천로 253",
            "phone": "0507-1427-9201",
            "stroller": "○",
            "baby_chair": "○",
            "lat": "35.1431591",
            "lon": "126.8578302"
        },
        {
            "category_id": "1",
            "name": "테이트모던",
            "address": "광주 서구 상무대로673번길 24",
            "phone": "062-383-0895",
            "stroller": "○",
            "baby_chair": "○",
            "lat": "35.1438856",
            "lon": "126.838045"
        },
        {
            "category_id": "1",
            "name": "미식아스카",
            "address": "광주 서구 마륵로 67",
            "phone": "0507-1439-3788",
            "stroller": "○",
            "lat": "35.1449777",
            "lon": "126.8389458"
        },
        {
            "category_id": "1",
            "name": "키작은요리사",
            "address": "광주 서구 상무공원로 8",
            "phone": "0507-1347-3997",
            "baby_chair": "○",
            "lat": "35.1452355",
            "lon": "126.843842"
        },
        {
            "category_id": "1",
            "name": "명가원",
            "address": "광주 서구 상무시민로 97-5 서영빌딩",
            "phone": "0507-1405-8816",
            "stroller": "○",
            "baby_chair": "○",
            "lat": "35.155783",
            "lon": "126.8495756"
        },
        {
            "category_id": "1",
            "name": "밥장인돼지찌개 상무점",
            "address": "광주 서구 운천로204번길 3-1 1층 ",
            "phone": "0507-1406-4024",
            "baby_chair": "○",
            "lat": "35.1510711",
            "lon": "126.8560084"
        },
        {
            "category_id": "1",
            "name": "고다미",
            "address": "광주 서구 상무자유로 170 이연안과",
            "phone": "062-373-9600",
            "stroller": "○",
            "baby_chair": "○",
            "lat": "35.1512575",
            "lon": "126.8527452"
        },
        {
            "category_id": "1",
            "name": "명지원명가",
            "address": "광주 서구 운천로 237 명지빌",
            "phone": "062-383-7599",
            "stroller": "○",
            "baby_chair": "○",
            "lat": "35.1536348",
            "lon": "126.8544975"
        },
        {
            "category_id": "1",
            "name": "루뇽",
            "address": "광주 서구 상무대로 635, 2층",
            "phone": "062-371-0230",
            "baby_chair": "○",
            "lat": "35.1409316",
            "lon": "126.8344526"
        },
        {
            "category_id": "1",
            "name": "마루요시 상무점",
            "address": "광주 서구 상무번영로 4 1층 101호",
            "phone": "0507-1382-2535",
            "stroller": "○",
            "baby_chair": "○",
            "lat": "35.1538758",
            "lon": "126.8531874"
        },
        {
            "category_id": "1",
            "name": "구르메키친",
            "address": "광주 서구 마륵로 108",
            "phone": "062-385-2335",
            "baby_chair": "○",
            "lat": "35.1444375",
            "lon": "126.8385567"
        },
        {
            "category_id": "1",
            "name": "대소양",
            "address": "광주 서구 상무민주로 4",
            "phone": "062-363-9292",
            "stroller": "○",
            "baby_chair": "○",
            "lat": "35.1509197",
            "lon": "126.8588848"
        },
        {
            "category_id": "1",
            "name": "어나더키친",
            "address": "광주 서구 시청로60번길 21-9 메가박스",
            "phone": "0507-1414-9085",
            "stroller": "○",
            "baby_chair": "○",
            "lat": "35.1542933",
            "lon": "126.8544584"
        },
        {
            "category_id": "1",
            "name": "동경화로 상무본점",
            "address": "광주 서구 시청로60번길 21-9",
            "phone": "0507-1420-7567",
            "stroller": "○",
            "baby_chair": "○",
            "lat": "35.1545865",
            "lon": "126.8539134"
        },
        {
            "category_id": "1",
            "name": "송학한정식",
            "address": "광주 서구 상무중앙로 101",
            "phone": "0507-1496-3340",
            "stroller": "○",
            "baby_chair": "○",
            "lat": "35.1516104",
            "lon": "126.8484382"
        },
        {
            "category_id": "1",
            "name": "하해가",
            "address": "광주 서구 내방로 37 1,2층",
            "phone": "0507-1401-4913",
            "stroller": "○",
            "baby_chair": "○",
            "lat": "35.1594348",
            "lon": "126.8448792"
        },
        {
            "category_id": "1",
            "name": "하지메",
            "address": "광주 서구 상무민주로 16",
            "phone": "062-384-3301",
            "stroller": "○",
            "lat": "35.1519691",
            "lon": "126.8587121"
        },
        {
            "category_id": "1",
            "name": "온더블랙 상무점",
            "address": "광주 서구 상무공원로 12 인애빌딩",
            "phone": "062-226-5432",
            "stroller": "○",
            "baby_chair": "○",
            "lat": "35.145612",
            "lon": "126.8436326"
        },
        {
            "category_id": "1",
            "name": "더바른샤브",
            "address": "광주 서구 상무중앙로28번길 4 세진빌딩",
            "phone": "062-374-5559",
            "stroller": "○",
            "play_room": "○",
            "baby_chair": "○",
            "lat": "35.1491505",
            "lon": "126.8488875"
        },
        {
            "category_id": "1",
            "name": "장군알요리전문점",
            "address": "광주 서구 계수로59번길 3",
            "phone": "062-374-3577",
            "stroller": "○",
            "baby_menu": "○",
            "lat": "35.1606157",
            "lon": "126.8571458"
        },
        {
            "category_id": "1",
            "name": "신락원 상무점",
            "address": "광주 서구 상무시민로 95-2 2층",
            "phone": "0507-1329-6849",
            "stroller": "○",
            "baby_chair": "○",
            "lat": "35.1554063",
            "lon": "126.8495886"
        },
        {
            "category_id": "1",
            "name": "다르다김밥주먹밥 상무직영점",
            "address": "광주 서구 치평로 86 보광빌딩",
            "phone": "0507-1437-1139",
            "stroller": "○",
            "lat": "35.1548937",
            "lon": "126.8478146"
        },
        {
            "category_id": "1",
            "name": "에머이 광주상무점",
            "address": "광주 서구 시청로 27 광명메이루즈 1층 128호",
            "phone": "062-373-7174",
            "stroller": "○",
            "baby_chair": "○",
            "lat": "35.1508774",
            "lon": "126.8509389"
        },
        {
            "category_id": "1",
            "name": "오스테리아12",
            "address": "광주 서구 상무대로673번길 19",
            "phone": "062-371-3335",
            "stroller": "○",
            "baby_chair": "○",
            "lat": "35.143404",
            "lon": "126.8378464"
        },
        {
            "category_id": "1",
            "name": "맥문동",
            "address": "광주 서구 마륵로 24",
            "phone": "062-373-0895",
            "stroller": "○",
            "lat": "35.1449262",
            "lon": "126.8431293"
        },
        {
            "category_id": "1",
            "name": "이바돔감자탕 상무점",
            "address": "광주 서구 상무중앙로34번길 2",
            "phone": "0507-1433-8383",
            "stroller": "○",
            "play_room": "○",
            "baby_chair": "○",
            "baby_menu": "○",
            "lat": "35.1496361",
            "lon": "126.8488676"
        },
        {
            "category_id": "1",
            "name": "쿠우쿠우 광주상무점",
            "address": "광주 서구 시청로50번길 3 5층",
            "phone": "062-383-0201",
            "stroller": "○",
            "baby_chair": "○",
            "lat": "35.153067",
            "lon": "126.8535824"
        },
        {
            "category_id": "1",
            "name": "스시도감",
            "address": "광주 서구 치평로 106 1층",
            "phone": "0507-1399-8913",
            "stroller": "○",
            "baby_chair": "○",
            "lat": "35.1568038",
            "lon": "126.8478184"
        },
        {
            "category_id": "1",
            "name": "나정상회",
            "address": "광주 서구 상무자유로 24",
            "phone": "062-944-1489",
            "stroller": "○",
            "lat": "35.151183",
            "lon": "126.8367154"
        },
        {
            "category_id": "1",
            "name": "상무지구 오로라양식",
            "address": "광주 서구 치평로 124",
            "phone": "0507-1396-1255",
            "stroller": "○",
            "lat": "35.1582721",
            "lon": "126.8478152"
        },
        {
            "category_id": "1",
            "name": "스시도감",
            "address": "광주 서구 치평로 106 1층",
            "phone": "0507-1399-8913",
            "stroller": "○",
            "baby_chair": "○",
            "lat": "35.1568038",
            "lon": "126.8478184"
        },
        {
            "category_id": "1",
            "name": "나정상회",
            "address": "광주 서구 상무자유로 24",
            "phone": "062-944-1489",
            "stroller": "○",
            "play_room": "○",
            "lat": "35.151183",
            "lon": "126.8367154"
        },
        {
            "category_id": "1",
            "name": "진미청국장",
            "address": "광주 서구 내방로 27 백향목",
            "phone": "062-374-1910",
            "stroller": "○",
            "lat": "35.1592425",
            "lon": "126.843611"
        },
        {
            "category_id": "1",
            "name": "서울깍두기",
            "address": "광주 서구 상무시민로 97-6",
            "phone": "062-385-2123",
            "stroller": "○",
            "lat": "35.1558203",
            "lon": "126.8498945"
        },
        {
            "category_id": "1",
            "name": "육전 한옥",
            "address": "광주 서구 운천로 223 한옥1층",
            "phone": "0507-1382-1205",
            "stroller": "○",
            "baby_chair": "○",
            "lat": "35.1522524",
            "lon": "126.8544422"
        },
        {
            "category_id": "1",
            "name": "코코샤브 상무점",
            "address": "광주 서구 상무중앙로 24",
            "phone": "062-373-8482",
            "stroller": "○",
            "baby_chair": "○",
            "lat": "35.1489741",
            "lon": "126.8521539"
        },
        {
            "category_id": "1",
            "name": "고려조삼계탕 상무점",
            "address": "광주 서구 시청로20번길 14",
            "phone": "062-371-8886",
            "baby_chair": "○",
            "lat": "35.1501381",
            "lon": "126.8533272"
        },
        {
            "category_id": "1",
            "name": "홍익돈까스 광주상무점",
            "address": "광주 서구 상무중앙로78번길 5-6",
            "phone": "062-373-0274",
            "stroller": "○",
            "baby_chair": "○",
            "lat": "35.1545303",
            "lon": "126.8495066"
        },
        {
            "category_id": "1",
            "name": "어쩌다 토종닭",
            "address": "광주 서구 상일로54번길 5",
            "phone": "062-381-5233",
            "stroller": "○",
            "lat": "35.1603924",
            "lon": "126.8638816"
        },
        {
            "category_id": "1",
            "name": "장인닭갈비 광주상무점",
            "address": "광주 서구 상무중앙로 96 1층",
            "phone": "062-383-3855",
            "stroller": "○",
            "baby_chair": "○",
            "lat": "35.1554362",
            "lon": "126.8490285"
        },
        {
            "category_id": "1",
            "name": "인디 광주상무점",
            "address": "광주 서구 상무대로867번길 28",
            "phone": "062-376-7052",
            "stroller": "○",
            "baby_chair": "○",
            "lat": "35.1515959",
            "lon": "126.8564451"
        },
        {
            "category_id": "1",
            "name": "램엔솔트",
            "address": "광주 서구 상무연하로 50 에코노블빌딩 103호",
            "phone": "062-373-1360",
            "stroller": "○",
            "baby_chair": "○",
            "lat": "35.1527077",
            "lon": "126.8505518"
        },
        {
            "category_id": "1",
            "name": "곽만근갈비탕 광주상무점",
            "address": "광주 서구 상무중앙로68번길 5 1F",
            "phone": "0507-1312-4005",
            "stroller": "○",
            "baby_chair": "○",
            "lat": "35.1530566",
            "lon": "126.8492222"
        },
        {
            "category_id": "1",
            "name": "해태집",
            "address": "광주 서구 상무평화로 6-26",
            "phone": "0507-1316-8359",
            "stroller": "○",
            "lat": "35.1478785",
            "lon": "126.8500183"
        },
        {
            "category_id": "1",
            "name": "예향계절한정식",
            "address": "광주 서구 상무평화로 131 사이버빌딩",
            "phone": "062-381-8700",
            "stroller": "○",
            "baby_chair": "○",
            "lat": "35.1496751",
            "lon": "126.8527016"
        },
        {
            "category_id": "1",
            "name": "바른고기엘베요타 상무점",
            "address": "광주 서구 상무연하로 16 1층",
            "phone": "062-266-6666",
            "stroller": "○",
            "lat": "35.149537",
            "lon": "126.850533"
        },
        {
            "category_id": "1",
            "name": "크래버대게나라 광주상무점",
            "address": "광주 서구 운천로 213",
            "phone": "062-376-1116",
            "stroller": "○",
            "lat": "35.1431591",
            "lon": "126.8578302"
        },
        {
            "category_id": "1",
            "name": "영미오리탕 광주상무점",
            "address": "광주 서구 상무중앙로104번길 1",
            "phone": "062-362-5252",
            "stroller": "○",
            "lat": "35.1561539",
            "lon": "126.8497669"
        },
        {
            "category_id": "1",
            "name": "칸세이스시 상무본점",
            "address": "광주 서구 시청로60번길 21-6",
            "phone": "062-375-3440",
            "stroller": "○",
            "lat": "35.1541921",
            "lon": "126.8544304"
        },
        {
            "category_id": "1",
            "name": "대게수산",
            "address": "광주 서구 상무자유로 137-10 봉영빌딩 1층 대게수산",
            "phone": "062-383-0222",
            "stroller": "○",
            "baby_chair": "○",
            "lat": "35.1523626",
            "lon": "126.8495129"
        },
        {
            "category_id": "1",
            "name": "금다연한정식",
            "address": "광주 서구 상무연하로 72 골든유토피아 202호",
            "phone": "062-374-1000",
            "stroller": "○",
            "baby_chair": "○",
            "lat": "35.1546015",
            "lon": "126.8504625"
        },
        {
            "category_id": "1",
            "name": "순우리감자탕 상무점",
            "address": "광주 서구 치평로 80",
            "phone": "062-383-7730",
            "stroller": "○",
            "baby_chair": "○",
            "lat": "35.1545323",
            "lon": "126.8478142"
        },
        {
            "category_id": "1",
            "name": "초한지",
            "address": "광주 서구 운천로 213",
            "phone": "0507-1419-8080",
            "stroller": "○",
            "lat": "35.1431591",
            "lon": "126.8578302"
        },
        {
            "category_id": "1",
            "name": "홍대개미 상무점",
            "address": "광주 서구 상무연하로 75 2층 201, 202호",
            "phone": "0507-1344-3639",
            "baby_chair": "○",
            "lat": "35.1549273",
            "lon": "126.8499301"
        },
        {
            "category_id": "1",
            "name": "바른초밥",
            "address": "광주 서구 치평로 124 k1오피스텔 1층",
            "phone": "062-373-0122",
            "stroller": "○",
            "baby_chair": "○",
            "lat": "35.1582721",
            "lon": "126.8478152"
        },
        {
            "category_id": "1",
            "name": "아웃백스테이크하우스 광주상무점",
            "address": "광주 서구 상무연하로 4",
            "phone": "0507-1327-3761",
            "stroller": "○",
            "baby_chair": "○",
            "lat": "35.1540738",
            "lon": "126.8499348"
        },
        {
            "category_id": "1",
            "name": "빛당",
            "address": "광주 서구 상무오월로3번길 14-19",
            "phone": "0507-1431-9092",
            "stroller": "○",
            "lat": "35.15693",
            "lon": "126.860884"
        },
        {
            "category_id": "1",
            "name": "나나방콕",
            "address": "광주 서구 상무자유로 180 대선빌딩 1F",
            "phone": "0507-1349-7501",
            "stroller": "○",
            "baby_chair": "○",
            "lat": "35.1512948",
            "lon": "126.8539245"
        },
        {
            "category_id": "1",
            "name": "미풍해장국 광주상무점",
            "address": "광주 서구 시청로20번길 11",
            "phone": "062-373-7730",
            "stroller": "○",
            "baby_chair": "○",
            "lat": "35.1504561",
            "lon": "126.8533096"
        },
        {
            "category_id": "1",
            "name": "마구로본가 상무점",
            "address": "광주 서구 치평동 1255-17",
            "phone": "0504-0999-0952",
            "stroller": "○",
            "lat": "35.1486598",
            "lon": "126.849429"
        },
        {
            "category_id": "1",
            "name": "친츠",
            "address": "광주 서구 상무누리로 15 2층",
            "phone": "062-383-2046",
            "stroller": "○",
            "lat": "35.1468849",
            "lon": "126.8409538"
        },
        {
            "category_id": "1",
            "name": "원두막",
            "address": "광주 서구 상무중앙로 6-28",
            "phone": "062-571-3385",
            "stroller": "○",
            "lat": "35.1478769",
            "lon": "126.8501336"
        },
        {
            "category_id": "1",
            "name": "규이치프리미엄",
            "address": "광주 서구 상무연하로 48 죽암빌딩 1층 103호",
            "phone": "0507-1420-9930",
            "stroller": "○",
            "lat": "35.1524697",
            "lon": "126.8505486"
        },
        {
            "category_id": "1",
            "name": "김형제고기의철학 상무점",
            "address": "광주 서구 상무연하로 47 1층",
            "phone": "062-372-7776",
            "stroller": "○",
            "lat": "35.1524959",
            "lon": "126.8499786"
        },
        {
            "category_id": "1",
            "name": "삼희불낙 상무본점",
            "address": "광주 서구 상무누리로 143",
            "phone": "062-383-3233",
            "stroller": "○",
            "lat": "35.1500511",
            "lon": "126.8390195"
        },
        {
            "category_id": "1",
            "name": "천사곱창 광주상무점",
            "address": "광주 서구 시청로60번길 21-6 B103호",
            "phone": "0507-1331-7608",
            "stroller": "○",
            "lat": "35.1541921",
            "lon": "126.8544304"
        },
        {
            "category_id": "1",
            "name": "무쏘 광주상무점",
            "address": "광주 서구 상무중앙로 96 1층",
            "phone": "0507-1355-3292",
            "stroller": "○",
            "lat": "35.1554362",
            "lon": "126.8490285"
        },
        {
            "category_id": "1",
            "name": "죽이야기 광주 상무점",
            "address": "광주 서구 상무자유로 179",
            "phone": "0504-0953-0842",
            "stroller": "○",
            "lat": "35.1516847",
            "lon": "126.842175"
        },
        {
            "category_id": "1",
            "name": "소코아",
            "address": "광주 서구 상무중앙로 86 트윈스 빌딩 1층",
            "phone": "0507-1320-5955",
            "stroller": "○",
            "baby_chair": "○",
            "lat": "35.1545033",
            "lon": "126.8489417"
        },
        {
            "category_id": "1",
            "name": "서가앤쿡 광주상무점",
            "address": "광주 서구 상무중앙로28번길 4 세진빌딩2층",
            "phone": "062-225-6161",
            "stroller": "○",
            "lat": "35.1493039",
            "lon": "126.8498367"
        },
        {
            "category_id": "1",
            "name": "그밥에이반찬플러스",
            "address": "광주 서구 상무중앙로 9 지하1층",
            "phone": "062-373-8199",
            "stroller": "○",
            "lat": "35.1477158",
            "lon": "126.8479772"
        },
        {
            "category_id": "1",
            "name": "강태공회",
            "address": "광주 서구 상무중앙로78번길 5-6",
            "phone": "062-385-1836",
            "stroller": "○",
            "lat": "35.1545303",
            "lon": "126.8495066"
        },
        {
            "category_id": "1",
            "name": "델리하우스",
            "address": "광주 서구 상무누리로 30 김대중컨벤션센터 컨벤션동 2층",
            "phone": "0507-1446-0003",
            "stroller": "○",
            "baby_chair": "○",
            "lat": "35.1468849",
            "lon": "126.8409538"
        },
        {
            "category_id": "1",
            "name": "소도둑 광주상무점",
            "address": "광주 서구 상무중앙로38번길 7",
            "phone": "0507-1326-2123",
            "stroller": "○",
            "lat": "35.1504544",
            "lon": "126.8495168"
        },
        {
            "category_id": "1",
            "name": "이산정",
            "address": "광주 서구 원마륵1길 33",
            "phone": "062-375-3070",
            "stroller": "○",
            "lat": "35.1462191",
            "lon": "126.8372722"
        },
        {
            "category_id": "1",
            "name": "팔당닭발 광주상무점",
            "address": "광주 서구 시청로 27",
            "phone": "0507-1404-5345",
            "stroller": "○",
            "lat": "35.1640745",
            "lon": "126.8511313"
        },
        {
            "category_id": "1",
            "name": "함평천지한우 가화원",
            "address": "광주 서구 상무번영로 66",
            "phone": "0507-1413-9293",
            "stroller": "○",
            "lat": "35.1556967",
            "lon": "126.8533118"
        },
        {
            "category_id": "1",
            "name": "예향정 상무점",
            "address": "광주 서구 시청서편로4번길 17-5",
            "phone": "062-385-1194",
            "stroller": "○",
            "lat": "35.1594345",
            "lon": "126.8473993"
        },
        {
            "category_id": "1",
            "name": "마피아",
            "address": "광주 서구 상무오월로15번길 28-15",
            "phone": "0507-1424-1778",
            "stroller": "○",
            "lat": "35.1577572",
            "lon": "126.8621051"
        },
        {
            "category_id": "1",
            "name": "프랭크버거 광주상무점",
            "address": "광주 서구 상무중앙로 29",
            "phone": "062-374-5858",
            "stroller": "○",
            "lat": "35.149558",
            "lon": "126.8479556"
        },
        {
            "category_id": "1",
            "name": "취화선 상무본점",
            "address": "광주 서구 상무오월로3번길 12",
            "phone": "062-374-8292",
            "stroller": "○",
            "lat": "35.1565641",
            "lon": "126.8599244"
        },
        {
            "category_id": "1",
            "name": "마포선장 상무직영점",
            "address": "광주 서구 상무자유로 137-10",
            "phone": "062-710-5409",
            "stroller": "○",
            "lat": "35.1523626",
            "lon": "126.8495129"
        },
        {
            "category_id": "1",
            "name": "The chef",
            "address": "광주 서구 상무대로 1032 LK메디피아빌딩 1층",
            "phone": "0507-1438-0624",
            "stroller": "○",
            "lat": "35.1514634",
            "lon": "126.8749047"
        },
        {
            "category_id": "1",
            "name": "도토리편백집 광주상무점",
            "address": "광주 서구 상무중앙로78번길 5-6",
            "phone": "0507-1473-0031",
            "stroller": "○",
            "baby_chair": "○",
            "lat": "35.1545303",
            "lon": "126.8495066"
        },
        {
            "category_id": "1",
            "name": "아비꼬 광주상무점",
            "address": "광주 서구 상무연하로 19 1층",
            "phone": "062-384-8859",
            "stroller": "○",
            "lat": "35.1499313",
            "lon": "126.8499675"
        },
        {
            "category_id": "1",
            "name": "연안식당 광주상무점",
            "address": "광주 서구 상무중앙로 71 1층",
            "phone": "062-373-3353",
            "stroller": "○",
            "lat": "35.1531549",
            "lon": "126.8478138"
        },
        {
            "category_id": "1",
            "name": "셰프의 닭발",
            "address": "광주 서구 상무대로884번길 10",
            "phone": "062-383-9982",
            "stroller": "○",
            "lat": "35.1495026",
            "lon": "126.8585798"
        },
        {
            "category_id": "1",
            "name": "더프리 치평본점",
            "address": "광주 서구 상무화원로17번길 1",
            "phone": "0507-1378-3788",
            "stroller": "○",
            "lat": "35.1453323",
            "lon": "126.84256"
        },
        {
            "category_id": "1",
            "name": "미스터초밥 상무메이루즈점",
            "address": "광주 서구 시청로 27 상무광명메이루즈",
            "phone": "0507-1333-7009",
            "stroller": "○",
            "lat": "35.1508774",
            "lon": "126.8509389"
        },
        {
            "category_id": "1",
            "name": "징기스 광주상무점",
            "address": "광주 서구 상무연하로 16 스마일빌딩 104호",
            "phone": "0507-1440-1242",
            "stroller": "○",
            "lat": "35.149537",
            "lon": "126.850533"
        },
        {
            "category_id": "1",
            "name": "백곰을사랑한연어",
            "address": "광주 서구 상무연하로 16 1층",
            "phone": "062-236-5832",
            "stroller": "○",
            "lat": "35.149537",
            "lon": "126.850533"
        },
        {
            "category_id": "1",
            "name": "한우예가",
            "address": "광주 북구 하남대로 699",
            "phone": "062-513-9885",
            "stroller": "○",
            "baby_chair": "○",
            "lat": "35.172013",
            "lon": "126.8692812"
        },
        {
            "category_id": "1",
            "name": "소동파",
            "address": "광주 서구 하남대로 696",
            "phone": "062-514-5143",
            "stroller": "○",
            "lat": "35.1714425",
            "lon": "126.8687984"
        },
        {
            "category_id": "1",
            "name": "새벽집",
            "address": "광주 서구 상무연하로 58",
            "phone": "062-384-8592",
            "stroller": "○",
            "lat": "35.1532475",
            "lon": "126.8505365"
        },
        {
            "category_id": "1",
            "name": "일빴따",
            "address": "광주 서구 운천로204번길 9",
            "phone": "062-374-7070",
            "stroller": "○",
            "lat": "35.1514344",
            "lon": "126.8564862"
        },
        {
            "category_id": "1",
            "name": "멜팅쿡",
            "address": "광주 남구 광복마을5길 10",
            "phone": "0507-1332-6456",
            "stroller": "○",
            "baby_chair": "○",
            "lat": "35.1240009",
            "lon": "126.8960631"
        },
        {
            "category_id": "1",
            "name": "뼈통 감자통본점",
            "address": "광주 남구 서문대로 723",
            "phone": "062-675-1221",
            "stroller": "○",
            "play_room": "○",
            "lat": "35.1236824",
            "lon": "126.8977109"
        },
        {
            "category_id": "1",
            "name": "일칠오도씨",
            "address": "광주 남구 서문대로 706",
            "phone": "062-652-7707",
            "stroller": "○",
            "baby_chair": "○",
            "baby_menu": "○",
            "lat": "35.1226396",
            "lon": "126.8990162"
        },
        {
            "category_id": "1",
            "name": "깐깐한 족발",
            "address": "광주 남구 광복마을길 77",
            "phone": "0507-1308-1232",
            "stroller": "○",
            "lat": "35.1246302",
            "lon": "126.8967655"
        },
        {
            "category_id": "1",
            "name": "메이시앙",
            "address": "광주 남구 서문대로 739-1 1층",
            "phone": "0507-1489-8884",
            "stroller": "○",
            "baby_chair": "○",
            "baby_menu": "○",
            "lat": "35.1253326",
            "lon": "126.8971894"
        },
        {
            "category_id": "1",
            "name": "서해 수산 활어 직판장",
            "address": "광주 남구 광복마을5길 5 1층",
            "phone": "062-652-2477",
            "stroller": "○",
            "lat": "35.1238397",
            "lon": "126.8963758"
        },
        {
            "category_id": "1",
            "name": "해물을 품은 닭갈비",
            "address": "광주 남구 광복마을6길 3-1",
            "phone": "062-671-95959",
            "stroller": "○",
            "meeting_room": "○",
            "baby_chair": "○",
            "baby_menu": "○",
            "lat": "35.1249492",
            "lon": "126.8964584"
        },
        {
            "category_id": "1",
            "name": "맥도날드 광주진월DT",
            "address": "광주 남구 서문대로 697 광주21세기주유소",
            "phone": "050-4307-6814",
            "stroller": "○",
            "baby_chair": "○",
            "lat": "35.1216618",
            "lon": "126.8982366"
        },
        {
            "category_id": "1",
            "name": "놀부보쌈&부대찌개",
            "address": "광주 남구 서문대로675",
            "phone": "062-412-6562",
            "play_room": "○",
            "lat": "35.1195136",
            "lon": "126.8987193"
        },
        {
            "category_id": "1",
            "name": "청년다방 진월점",
            "address": "광주 남구 금당로2",
            "phone": "062-416-4162",
            "baby_chair": "○",
            "lat": "35.1179531",
            "lon": "126.8979054"
        },
        {
            "category_id": "1",
            "name": "봄초밥 여름소바",
            "address": "광주 남구 서문대로 675",
            "phone": "062-673-8811",
            "baby_chair": "○",
            "baby_menu": "○",
            "lat": "35.1195136",
            "lon": "126.8987193"
        },
        {
            "category_id": "1",
            "name": "설다온",
            "address": "광주 남구 금당로 5",
            "phone": "062-655-6080",
            "meeting_room": "○",
            "baby_chair": "○",
            "lat": "35.1177909",
            "lon": "126.8973086"
        },
        {
            "category_id": "1",
            "name": "뜨락",
            "address": "광주 남구 화산로 105",
            "phone": "062-672-7001",
            "meeting_room": "○",
            "lat": "35.1148014",
            "lon": "126.9076102"
        },
        {
            "category_id": "1",
            "name": "해물 칼국수 밀밭",
            "address": "광주 남구 화산로 89",
            "phone": "0504-0544-2595",
            "baby_chair": "○",
            "lat": "35.1144932",
            "lon": "126.9059162"
        },
        {
            "category_id": "1",
            "name": "시골집 추어탕",
            "address": "광주 남구 화산로 101",
            "phone": "062-676-0329",
            "stroller": "○",
            "meeting_room": "○",
            "baby_chair": "○",
            "lat": "35.1146727",
            "lon": "126.9072302"
        },
        {
            "category_id": "1",
            "name": "더 제이케이 키친박스 광주대점",
            "address": "광주 남구 효덕로300번길 2",
            "phone": "062-651-2226",
            "baby_chair": "○",
            "lat": "35.1124408",
            "lon": "126.89857"
        },
        {
            "category_id": "1",
            "name": "진스가든",
            "address": "광주 남구 서문대로556번길 27 (송하동)",
            "phone": "0507-1414-3001",
            "meeting_room": "○",
            "baby_chair": "○",
            "lat": "35.1109836",
            "lon": "126.8958251"
        },
        {
            "category_id": "1",
            "name": "만두가 맛있는 샤브집",
            "address": "광주 남구 효덕로 204",
            "phone": "0507-1408-5025",
            "stroller": "○",
            "meeting_room": "○",
            "baby_chair": "○",
            "baby_menu": "○",
            "lat": "35.1025349",
            "lon": "126.8994961"
        },
        {
            "category_id": "1",
            "name": "쌍교 숯불가비 노대점",
            "address": "광주 남구 노대동 399 쌍교숯불갈비",
            "phone": "0507-1328-0093",
            "meeting_room": "○",
            "baby_chair": "○",
            "lat": "35.0980128",
            "lon": "126.9067332"
        },
        {
            "category_id": "1",
            "name": "아름다운 중식당 풍미",
            "address": "광주 남구 효우2로26번길 14 2층 204호 205호",
            "phone": "062-674-0999",
            "meeting_room": "○",
            "baby_chair": "○",
            "lat": "35.1221068",
            "lon": "126.9079579"
        },
        {
            "category_id": "1",
            "name": "만찬 코다리 봉선점",
            "address": "광주 남구 봉선중길 2",
            "phone": "062-671-8833",
            "baby_chair": "○",
            "lat": "35.1297585",
            "lon": "126.9112551"
        },
        {
            "category_id": "1",
            "name": "당산 나무집",
            "address": "광주 남구 봉선중길 4 당산나무집",
            "phone": "0507-1351-2440",
            "baby_bed": "○",
            "meeting_room": "○",
            "baby_chair": "○",
            "lat": "35.1299425",
            "lon": "126.9122706"
        },
        {
            "category_id": "1",
            "name": "쟝킴",
            "address": "광주 남구 봉선2로 85",
            "phone": "062-655-9389",
            "stroller": "○",
            "baby_tableware": "○",
            "baby_chair": "○",
            "lat": "35.1261175",
            "lon": "126.915747"
        },
        {
            "category_id": "1",
            "name": "옛날 밥상",
            "address": "광주 남구 용대로119번길 6",
            "phone": "0507-1427-7337",
            "meeting_room": "○",
            "lat": "35.1268892",
            "lon": "126.9176765"
        },
        {
            "category_id": "1",
            "name": "코코샤브 봉선점",
            "address": "광주 남구 봉선2로 81",
            "phone": "062-653-6000",
            "meeting_room": "○",
            "baby_chair": "○",
            "baby_menu": "○",
            "lat": "35.1261638",
            "lon": "126.9153887"
        },
        {
            "category_id": "1",
            "name": "얌얌차차",
            "address": "광주 남구 용대로 103-1",
            "phone": "062-675-7787",
            "stroller": "○",
            "baby_tableware": "○",
            "meeting_room": "○",
            "play_room": "○",
            "baby_chair": "○",
            "lat": "35.1255291",
            "lon": "126.9178953"
        },
        {
            "category_id": "1",
            "name": "킹콩부대찌개",
            "address": "광주 남구 용대로 103-1 1층",
            "phone": "0504-0544-3044",
            "stroller": "○",
            "baby_chair": "○",
            "baby_menu": "○",
            "lat": "35.1255291",
            "lon": "126.9178953"
        },
        {
            "category_id": "1",
            "name": "어센틱비스트로",
            "address": "광주 남구 봉선로79번길 9",
            "phone": "062-676-2369",
            "stroller": "○",
            "baby_tableware": "○",
            "baby_chair": "○",
            "lat": "35.1266615",
            "lon": "126.9068671"
        },
        {
            "category_id": "1",
            "name": "그레이스강",
            "address": "광주 남구 봉선1로26번길 10 1층 그레이스강",
            "phone": "062-675-4558",
            "meeting_room": "○",
            "baby_chair": "○",
            "lat": "35.1268847",
            "lon": "126.9080293"
        },
        {
            "category_id": "1",
            "name": "로니로티 봉선점",
            "address": "광주 남구 봉선중앙로 55 3층",
            "phone": "062-651-9777",
            "baby_chair": "○",
            "lat": "35.1259534",
            "lon": "126.9112179"
        },
        {
            "category_id": "1",
            "name": "수쿰빗19",
            "address": "광주 남구 봉선중앙로68번길 11 1층",
            "phone": "0507-1368-6811",
            "meeting_room": "○",
            "baby_chair": "○",
            "lat": "35.1271745",
            "lon": "126.912594"
        },
        {
            "category_id": "1",
            "name": "사계 진미 숯불 닭갈비 봉선점",
            "address": "광주 남구 봉선중앙로 57",
            "phone": "062-681-8592",
            "baby_chair": "○",
            "baby_menu": "○",
            "lat": "35.1261944",
            "lon": "126.9111577"
        },
        {
            "category_id": "1",
            "name": "정초밥",
            "address": "광주 남구 제석로 104",
            "phone": "0507-1320-7878",
            "meeting_room": "○",
            "baby_chair": "○",
            "lat": "35.1237739",
            "lon": "126.9073248"
        },
        {
            "category_id": "1",
            "name": "상무초밥 봉선점",
            "address": "광주 남구 제석로 110",
            "phone": "062-674-9200",
            "baby_chair": "○",
            "lat": "35.124068",
            "lon": "126.9075479"
        },
        {
            "category_id": "1",
            "name": "남해가든",
            "address": "광주 남구 봉선로133번길 23",
            "phone": "062-671-8348",
            "meeting_room": "○",
            "lat": "35.1251333",
            "lon": "126.9096358"
        },
        {
            "category_id": "1",
            "name": "동경화로 라운지",
            "address": "광주 남구 봉선로133번길 15",
            "phone": "0507-1322-7567",
            "meeting_room": "○",
            "baby_chair": "○",
            "lat": "35.124721",
            "lon": "126.9100999"
        },
        {
            "category_id": "1",
            "name": "나주 곰탕 봉선관",
            "address": "광주 남구 봉선로 127",
            "phone": "0507-1406-8250",
            "meeting_room": "○",
            "lat": "35.1238744",
            "lon": "126.9094705"
        },
        {
            "category_id": "1",
            "name": "메이쇼스시",
            "address": "광주 남구 봉선로 115",
            "phone": "062-653-8202",
            "meeting_room": "○",
            "baby_chair": "○",
            "lat": "35.1248016",
            "lon": "126.9085321"
        },
        {
            "category_id": "1",
            "name": "첨단 돌솥 감자탕 봉선점",
            "address": "광주 남구 봉선로 127",
            "phone": "0504-0999-0914",
            "play_room": "○",
            "baby_menu": "○",
            "lat": "35.1238744",
            "lon": "126.9094705"
        },
        {
            "category_id": "1",
            "name": "M오션뷔페",
            "address": "광주 남구 봉선로 152",
            "phone": "0507-1368-0011",
            "stroller": "○",
            "nursing_room": "○",
            "baby_chair": "○",
            "baby_menu": "○",
            "lat": "35.1227365",
            "lon": "126.9118356"
        },
        {
            "category_id": "1",
            "name": "퍼땀",
            "address": "광주 남구 용대로53번길 2-14",
            "phone": "0507-1341-2256",
            "baby_chair": "○",
            "lat": "35.1216505",
            "lon": "126.9179016"
        },
        {
            "category_id": "1",
            "name": "다르다 김밥 주먹밥",
            "address": "광주 남구 봉선중앙로 3",
            "phone": "0507-1310-1127",
            "baby_chair": "○",
            "lat": "35.1215821",
            "lon": "126.9123688"
        },
        {
            "category_id": "1",
            "name": "모노바스",
            "address": "광주 남구 봉선로 205",
            "phone": "062-672-2299",
            "meeting_room": "○",
            "baby_chair": "○",
            "lat": "35.1228279",
            "lon": "126.9177138"
        },
        {
            "category_id": "1",
            "name": "민속촌",
            "address": "광주 남구 봉선로 218",
            "phone": "062-652-1113",
            "meeting_room": "○",
            "play_room": "○",
            "lat": "35.1213805",
            "lon": "126.9186556"
        },
        {
            "category_id": "1",
            "name": "채선당 봉선점",
            "address": "광주 남구 봉선로 205",
            "phone": "062-672-1500",
            "baby_chair": "○",
            "lat": "35.1228279",
            "lon": "126.9177138"
        },
        {
            "category_id": "1",
            "name": "신제주통 아구찜",
            "address": "광주 남구 광복마을길 91",
            "phone": "0507-1332-1144",
            "baby_chair": "○",
            "lat": "35.1259131",
            "lon": "126.8965036"
        },
        {
            "category_id": "1",
            "name": "한우 뭉치",
            "address": "광주 남구 회서로52번길 31-1",
            "phone": "0507-1436-0323",
            "meeting_room": "○",
            "lat": "35.1264234",
            "lon": "126.8969125"
        },
        {
            "category_id": "1",
            "name": "써브웨이 주월점",
            "address": "광주 남구 서문대로 749 1층",
            "phone": "062-456-1181",
            "stroller": "○",
            "baby_chair": "○",
            "lat": "35.1262804",
            "lon": "126.8974422"
        },
        {
            "category_id": "1",
            "name": "르시엘블루 봉선점",
            "address": "광주 남구 봉선중앙로 133",
            "phone": "062-419-1555",
            "stroller": "○",
            "baby_tableware": "○",
            "baby_chair": "○",
            "lat": "35.1328014",
            "lon": "126.9104388"
        },
        {
            "category_id": "1",
            "name": "해마루",
            "address": "광주 남구 대남대로139번길 9",
            "phone": "062-655-2992",
            "meeting_room": "○",
            "baby_chair": "○",
            "lat": "35.1330579",
            "lon": "126.9101929"
        },
        {
            "category_id": "1",
            "name": "옹심이 칼국수 팥죽",
            "address": "광주 남구 봉선로19번길 6-1 옹심이칼국수팥죽",
            "phone": "050-4307-7363",
            "meeting_room": "○",
            "lat": "35.1314106",
            "lon": "126.9037468"
        },
        {
            "category_id": "1",
            "name": "해남 성내식당",
            "address": "광주 남구 봉선로 21 JM빌딩 2층",
            "phone": "062-672-5123",
            "meeting_room": "○",
            "lat": "35.1312806",
            "lon": "126.9033228"
        },
        {
            "category_id": "1",
            "name": "남매보쌈 주월점",
            "address": "광주 남구 봉선로 1",
            "phone": "0504-0544-3039",
            "meeting_room": "○",
            "lat": "35.1292871",
            "lon": "126.906716"
        },
        {
            "category_id": "1",
            "name": "두끼 광주남구청점",
            "address": "광주 남구 봉선로 1 남구청종합청사 지하1층",
            "phone": "0507-1303-7407",
            "baby_menu": "○",
            "lat": "35.1327362",
            "lon": "126.9024322"
        },
        {
            "category_id": "1",
            "name": "시골집",
            "address": "광주 남구 대남대로139번길 4-6 평화인테리어",
            "phone": "062-652-3082",
            "baby_chair": "○",
            "lat": "35.1334348",
            "lon": "126.9096455"
        },
        {
            "category_id": "1",
            "name": "본죽&비빔밥cafe 주월점",
            "address": "광주 남구 대남대로 139 1층",
            "phone": "062-671-7288",
            "baby_chair": "○",
            "lat": "35.1336559",
            "lon": "126.9098305"
        },
        {
            "category_id": "1",
            "name": "해뜨는집",
            "address": "광주 남구 대남대로223번길 62-2",
            "phone": "062-654-3450",
            "meeting_room": "○",
            "lat": "35.1304558",
            "lon": "126.8960758"
        },
        {
            "category_id": "1",
            "name": "버거킹 광주주월S-OIL점",
            "address": "광주 남구 회재로 1190",
            "phone": "070-7438-8609",
            "stroller": "○",
            "baby_chair": "○",
            "lat": "35.1318402",
            "lon": "126.89171"
        },
        {
            "category_id": "1",
            "name": "쭈박이식당 진월점",
            "address": "광주 남구 진다리로52번길 1 1층 쭈박이",
            "phone": "0507-1342-3342",
            "baby_chair": "○",
            "lat": "35.1364216",
            "lon": "126.9073599"
        },
        {
            "category_id": "1",
            "name": "민들레",
            "address": "광주 남구 진다리로6번가길 11-1",
            "phone": "062-672-2849",
            "meeting_room": "○",
            "lat": "35.1365691",
            "lon": "126.9035251"
        },
        {
            "category_id": "1",
            "name": "입큰아구찜&알곤이찜",
            "address": "광주 남구 백운로 39",
            "phone": "0507-1453-3579",
            "stroller": "○",
            "lat": "35.1369465",
            "lon": "126.9074922"
        },
        {
            "category_id": "1",
            "name": "미스터초밥DT점",
            "address": "광주 남구 대남대로 85 2층",
            "phone": "0507-1316-7502",
            "meeting_room": "○",
            "lat": "35.1341415",
            "lon": "126.9156263"
        },
        {
            "category_id": "1",
            "name": "SOKOA",
            "address": "광주 남구 천변좌로 468",
            "phone": "0507-1310-4156",
            "baby_chair": "○",
            "lat": "35.1387147",
            "lon": "126.9191133"
        },
        {
            "category_id": "1",
            "name": "테스타",
            "address": "광주 남구 백서로 58-1 테스타",
            "phone": "062-655-6443",
            "baby_tableware": "○",
            "baby_chair": "○",
            "lat": "35.1379201",
            "lon": "126.9147214"
        },
        {
            "category_id": "1",
            "name": "어니스트식스티",
            "address": "광주 남구 백서로 98",
            "phone": "0507-1434-0011",
            "baby_chair": "○",
            "lat": "35.1407119",
            "lon": "126.9166607"
        },
        {
            "category_id": "1",
            "name": "마리오셰프",
            "address": "광주 남구 제중로 40-1",
            "phone": "062-682-5595",
            "baby_tableware": "○",
            "baby_chair": "○",
            "lat": "35.1381725",
            "lon": "126.9142221"
        },
        {
            "category_id": "1",
            "name": "그라제1985",
            "address": "광주 남구 오기원길 20-4",
            "phone": "062-655-7657",
            "baby_tableware": "○",
            "baby_chair": "○",
            "lat": "35.1395423",
            "lon": "126.9164041"
        },
        {
            "category_id": "1",
            "name": "까스까스돈까스",
            "address": "광주 남구 양림로 77 까스 까스 돈까스",
            "phone": "062-456-0038",
            "baby_chair": "○",
            "lat": "35.1380141",
            "lon": "126.9172155"
        },
        {
            "category_id": "1",
            "name": "캐쥬얼식당",
            "address": "광주 남구 제중로46번길 10",
            "phone": "0507-1324-4627",
            "baby_chair": "○",
            "lat": "35.1385972",
            "lon": "126.914843"
        },
        {
            "category_id": "1",
            "name": "칸세이스시",
            "address": "광주 남구 제중로46번길 8-2",
            "phone": "062-682-3440",
            "baby_chair": "○",
            "lat": "35.1385938",
            "lon": "126.9145633"
        },
        {
            "category_id": "1",
            "name": "분포나인",
            "address": "광주 남구 백서로 39",
            "phone": "0507-1439-2274",
            "baby_chair": "○",
            "lat": "35.1374927",
            "lon": "126.9126993"
        },
        {
            "category_id": "1",
            "name": "본디소",
            "address": "광주 남구 양촌길 29-2 1층",
            "phone": "0507-1350-1661",
            "baby_tableware": "○",
            "meeting_room": "○",
            "baby_chair": "○",
            "lat": "35.1414201",
            "lon": "126.9142097"
        },
        {
            "category_id": "1",
            "name": "무드장",
            "address": "광주 남구 제중로46번길 3-8",
            "phone": "062-463-3535",
            "baby_tableware": "○",
            "baby_chair": "○",
            "lat": "35.1390851",
            "lon": "126.9145677"
        },
        {
            "category_id": "1",
            "name": "파인트리",
            "address": "광주 남구 백서로 97-1 양림동 주민센터 건너편",
            "phone": "062-413-3266",
            "baby_chair": "○",
            "lat": "35.1404583",
            "lon": "126.9164873"
        },
        {
            "category_id": "1",
            "name": "호식당",
            "address": "광주 남구 백서로 82-1",
            "phone": "070-4125-6616",
            "baby_chair": "○",
            "lat": "35.1398392",
            "lon": "126.9157351"
        },
        {
            "category_id": "1",
            "name": "밥제작소",
            "address": "광주 남구 정율성로 22 패밀리 마트",
            "phone": "070-7543-7121",
            "baby_chair": "○",
            "lat": "35.1378176",
            "lon": "126.9173695"
        },
        {
            "category_id": "1",
            "name": "한옥식당",
            "address": "광주 남구 백서로 87-2",
            "phone": "062-675-8886",
            "meeting_room": "○",
            "lat": "35.140298",
            "lon": "126.9152287"
        },
        {
            "category_id": "1",
            "name": "학짬뽕",
            "address": "광주 남구 오기원길 1",
            "phone": "062-655-8253",
            "baby_chair": "○",
            "lat": "35.1343273",
            "lon": "126.9183177"
        },
        {
            "category_id": "1",
            "name": "메타포",
            "address": "광주 남구 백서로 69 1층 메타포",
            "phone": "0507-1317-8040",
            "baby_chair": "○",
            "lat": "35.1387695",
            "lon": "126.9154651"
        },
        {
            "category_id": "1",
            "name": "김명화서리태콩국수",
            "address": "광주 남구 천변좌로338번길 16",
            "phone": "0507-1386-3232",
            "baby_chair": "○",
            "lat": "35.1485286",
            "lon": "126.9088168"
        },
        {
            "category_id": "1",
            "name": "거목한정식",
            "address": "광주 남구 천변좌로364번길 3-6 거목한정식",
            "phone": "062-672-0333",
            "meeting_room": "○",
            "baby_chair": "○",
            "lat": "35.1456408",
            "lon": "126.9116505"
        },
        {
            "category_id": "1",
            "name": "자갈자갈",
            "address": "광주 남구 천변좌로382번길 2",
            "phone": "062-676-1293",
            "meeting_room": "○",
            "lat": "35.1448449",
            "lon": "126.9128528"
        },
        {
            "category_id": "1",
            "name": "어반브룩",
            "address": "광주 남구 임암길 181",
            "phone": "062-674-0100",
            "baby_tableware": "○",
            "baby_chair": "○",
            "lat": "35.1021222",
            "lon": "126.8668262"
        },
        {
            "category_id": "1",
            "name": "남촌낙지",
            "address": "광주 남구 서문대로 339",
            "phone": "062-945-0780",
            "meeting_room": "○",
            "lat": "35.1137562",
            "lon": "126.8905454"
        },
        {
            "category_id": "1",
            "name": "약초흑염소",
            "address": "광주 남구 신효천2길 9",
            "phone": "062-673-8986",
            "meeting_room": "○",
            "lat": "35.1004702",
            "lon": "126.878394"
        },
        {
            "category_id": "1",
            "name": "등촌 본점",
            "address": "광주 남구 효우로230번길 2 1층",
            "phone": "062-672-5292",
            "baby_chair": "○",
            "lat": "35.1041571",
            "lon": "126.9030091"
        },
        {
            "category_id": "1",
            "name": "쌈마을찌개꾼 노대직영점",
            "address": "광주 남구 효덕로 213 1층",
            "phone": "0507-1353-9888",
            "play_room": "○",
            "baby_chair": "○",
            "lat": "35.10465",
            "lon": "126.8999524"
        },
        {
            "category_id": "1",
            "name": "효천숯불갈비",
            "address": "광주 남구 효우2로26번길 18 1동 2층 203호",
            "phone": "0507-1420-3669",
            "play_room": "○",
            "lat": "35.1221068",
            "lon": "126.9079579"
        },
        {
            "category_id": "1",
            "name": "돌매순두부",
            "address": "광주 남구 송암로 57-1 돌매순두부",
            "phone": "062-674-3355",
            "meeting_room": "○",
            "lat": "35.109949",
            "lon": "126.876567"
        },
        {
            "category_id": "1",
            "name": "판체타",
            "address": "광주 남구 군분로 159-1",
            "phone": "062-383-5689",
            "baby_chair": "○",
            "lat": "35.1463053",
            "lon": "126.8868619"
        },
        {
            "category_id": "1",
            "name": "맥도날드 광주월산DT점",
            "address": "광주 남구 대남대로 393",
            "phone": "070-7209-0573",
            "baby_chair": "○",
            "lat": "35.1458386",
            "lon": "126.8896371"
        },
        {
            "category_id": "1",
            "name": "등뼈감자탕&등갈비 월산점",
            "address": "광주 남구 군분로 137",
            "phone": "0507-1418-6002",
            "play_room": "○",
            "lat": "35.1445792",
            "lon": "126.888142"
        },
        {
            "category_id": "1",
            "name": "루치아",
            "address": "광주 남구 월산로116번길 22-1",
            "phone": "0507-1317-0674",
            "baby_tableware": "○",
            "baby_chair": "○",
            "lat": "35.1483764",
            "lon": "126.9000557"
        },
        {
            "category_id": "1",
            "name": "백년대게",
            "address": "광주 남구 대남대로 361",
            "phone": "062-352-8882",
            "meeting_room": "○",
            "lat": "35.1435052",
            "lon": "126.8916352"
        },
        {
            "category_id": "1",
            "name": "장어먹자",
            "address": "광주 남구 군분로 122",
            "phone": "0507-1421-0592",
            "baby_chair": "○",
            "lat": "35.1435356",
            "lon": "126.8894401"
        },
        {
            "category_id": "1",
            "name": "꽃돼지고기가든",
            "address": "광주 남구 포충로 65",
            "phone": "062-373-9477",
            "baby_chair": "○",
            "lat": "35.0579078",
            "lon": "126.7859355"
        },
        {
            "category_id": "1",
            "name": "구산가든",
            "address": "광주 남구 압촌길 54-5",
            "phone": "062-371-9345",
            "meeting_room": "○",
            "lat": "35.0908195",
            "lon": "126.8387972"
        },
        {
            "category_id": "1",
            "name": "금일정",
            "address": "광주 남구 신만산길 51-2 금일정",
            "phone": "0507-1417-3417",
            "meeting_room": "○",
            "lat": "35.0940422",
            "lon": "126.8492005"
        },
        {
            "category_id": "1",
            "name": "통샤브&세이로무시",
            "address": "광주 남구 봉선로 152",
            "phone": "062-413-7700",
            "baby_chair": "○",
            "lat": "35.1227365",
            "lon": "126.9118356"
        },
        {
            "category_id": "1",
            "name": "단돈신화 노대점",
            "address": "광주 남구 효덕로 194",
            "phone": "062-672-7850",
            "baby_chair": "○",
            "lat": "35.102155",
            "lon": "126.9004434"
        },
        {
            "category_id": "1",
            "name": "제주흑돈하루",
            "address": "광주 남구 효우로130번길 56",
            "phone": "0504-0999-2155",
            "baby_chair": "○",
            "lat": "35.1026753",
            "lon": "126.9002964"
        },
        {
            "category_id": "1",
            "name": "제주생갈비",
            "address": "광주 남구 용대로53번길 8",
            "phone": "0507-1346-8206",
            "baby_chair": "○",
            "lat": "35.121274",
            "lon": "126.9170245"
        },
        {
            "category_id": "1",
            "name": "문식당 하루끼니",
            "address": "광주 남구 효사랑길 5 2층",
            "phone": "062-652-0274",
            "baby_chair": "○",
            "lat": "35.1218351",
            "lon": "126.9169732"
        },
        {
            "category_id": "1",
            "name": "상도촌 봉선점",
            "address": "광주 남구 봉선2로19번길 10-23",
            "phone": "062-676-8355",
            "meeting_room": "○",
            "lat": "35.1262272",
            "lon": "126.9102927"
        },
        {
            "category_id": "1",
            "name": "미친고기 봉선점",
            "address": "광주 남구 봉선중앙로123번길 20 송암빌딩",
            "phone": "062-654-9290",
            "baby_chair": "○",
            "lat": "35.1320103",
            "lon": "126.9084689"
        },
        {
            "category_id": "1",
            "name": "데이지",
            "address": "광주 남구 용대로53번길 4",
            "phone": "062-671-5673",
            "baby_chair": "○",
            "lat": "35.121245",
            "lon": "126.9175065"
        },
        {
            "category_id": "1",
            "name": "경성식탁",
            "address": "광주 남구 제석로80번길 41",
            "phone": "0507-1394-1110",
            "baby_chair": "○",
            "lat": "35.1210173",
            "lon": "126.9114331"
        },
        {
            "category_id": "1",
            "name": "다이닝다디오",
            "address": "광주 남구 제중로 77 호남신학대학교",
            "phone": "062-676-1755",
            "baby_chair": "○",
            "lat": "35.1398265",
            "lon": "126.9113738"
        },
        {
            "category_id": "1",
            "name": "물텀벙아구찜",
            "address": "광주 남구 유안초등북길 9 물텅범아구찜",
            "phone": "062-672-5309",
            "baby_chair": "○",
            "lat": "35.1271058",
            "lon": "126.9144016"
        },
        {
            "category_id": "1",
            "name": "야미스시&사시미",
            "address": "광주 남구 광복마을5길 6",
            "phone": "062-682-8842",
            "meeting_room": "○",
            "baby_chair": "○",
            "lat": "35.1240699",
            "lon": "126.896614"
        },
        {
            "category_id": "1",
            "name": "필링 돈까스",
            "address": "광주 북구 설죽로 297",
            "phone": "0507-1313-3668",
            "meeting_room": "○",
            "baby_chair": "○",
            "lat": "35.1861336",
            "lon": "126.8980902"
        },
        {
            "category_id": "1",
            "name": "알담",
            "address": "광주 북구 설죽로 305 알담",
            "phone": "062-573-2020",
            "meeting_room": "○",
            "lat": "35.1868404",
            "lon": "126.8979569"
        },
        {
            "category_id": "1",
            "name": "눈과입이즐거운 짬뽕집",
            "address": "광주 북구 설죽로 301",
            "phone": "062-511-7770",
            "meeting_room": "○",
            "baby_chair": "○",
            "lat": "35.1929154",
            "lon": "126.8980778"
        },
        {
            "category_id": "1",
            "name": "피터테이블 용봉점",
            "address": "광주 북구 설죽로 251 1층",
            "phone": "062-515-7700",
            "baby_chair": "○",
            "lat": "35.182059",
            "lon": "126.8981474"
        },
        {
            "category_id": "1",
            "name": "돈까스만드는남자",
            "address": "광주 북구 비엔날레로 134 용산빌딩3층",
            "phone": "0507-1411-3668",
            "baby_chair": "○",
            "lat": "35.1826929",
            "lon": "126.8921465"
        },
        {
            "category_id": "1",
            "name": "월남옥",
            "address": "광주 북구 비엔날레로 134 용산빌딩 1층",
            "phone": "0507-1414-0282",
            "baby_chair": "○",
            "lat": "35.1826929",
            "lon": "126.8921465"
        },
        {
            "category_id": "1",
            "name": "상무초밥 용봉직영점",
            "address": "광주 북구 용봉택지로 95",
            "phone": "0507-1393-2535",
            "baby_chair": "○",
            "lat": "35.1785914",
            "lon": "126.8971556"
        },
        {
            "category_id": "1",
            "name": "깐깐한족발 용봉점",
            "address": "광주 북구 용봉택지로 82 ",
            "phone": "062-514-9092",
            "baby_chair": "○",
            "lat": "35.1782084",
            "lon": "126.8955777"
        },
        {
            "category_id": "1",
            "name": "미스터초밥",
            "address": "광주 북구 설죽로 200",
            "phone": "0507-1473-8920",
            "baby_chair": "○",
            "lat": "35.1773624",
            "lon": "126.8976048"
        },
        {
            "category_id": "1",
            "name": "김형제고기의철학 용봉점",
            "address": "광주 북구 용봉택지로 75 1층",
            "phone": "062-511-7778",
            "baby_tableware": "○",
            "baby_chair": "○",
            "lat": "35.1786469",
            "lon": "126.8947352"
        },
        {
            "category_id": "1",
            "name": "공초밥",
            "address": "광주 북구 청계로 48",
            "phone": "0507-1390-3977",
            "meeting_room": "○",
            "lat": "35.1770943",
            "lon": "126.8930206"
        },
        {
            "category_id": "1",
            "name": "원기옥",
            "address": "광주 북구 용봉택지로 52",
            "phone": "062-525-8555",
            "baby_chair": "○",
            "lat": "35.1783429",
            "lon": "126.8920518"
        },
        {
            "category_id": "1",
            "name": "금당",
            "address": "광주 북구 저불로31번길 18-1",
            "phone": "0507-1326-8888",
            "baby_chair": "○",
            "lat": "35.1774583",
            "lon": "126.893199"
        },
        {
            "category_id": "1",
            "name": "옹고집보쌈",
            "address": "광주 북구 저불로 18-4",
            "phone": "0507-1434-1261",
            "meeting_room": "○",
            "lat": "35.1758512",
            "lon": "126.8955756"
        },
        {
            "category_id": "1",
            "name": "어나더키친",
            "address": "광주 북구 용봉로 77 용봉문화관 1층",
            "phone": "062-530-5333",
            "baby_chair": "○",
            "lat": "35.1761175",
            "lon": "126.9058167"
        },
        {
            "category_id": "1",
            "name": "오라구 전대후문점",
            "address": "광주 북구 우치로100번길 9",
            "phone": "0507-1336-5559",
            "baby_chair": "○",
            "lat": "35.1765006",
            "lon": "126.9129585"
        },
        {
            "category_id": "1",
            "name": "삼일집",
            "address": "광주 북구 호동로15번길 50 삼일집",
            "phone": "0507-1381-8896",
            "baby_chair": "○",
            "lat": "35.1773703",
            "lon": "126.9145181"
        },
        {
            "category_id": "1",
            "name": "오로지 족발 전대점 발발이 추억",
            "address": "광주 북구 면앙로6번길 69",
            "phone": "0507-1428-9953",
            "baby_chair": "○",
            "lat": "35.1771742",
            "lon": "126.913684"
        },
        {
            "category_id": "1",
            "name": "피가로 전대점",
            "address": "광주 북구 우치로 112",
            "phone": "062-264-1789",
            "baby_chair": "○",
            "lat": "35.1774644",
            "lon": "126.9125779"
        },
        {
            "category_id": "1",
            "name": "팔레트",
            "address": "광주 북구 우치로 56",
            "phone": "0507-1426-8487",
            "meeting_room": "○",
            "baby_chair": "○",
            "lat": "35.1722913",
            "lon": "126.912268"
        },
        {
            "category_id": "1",
            "name": "탕화쿵푸마라탕 전대점",
            "address": "광주 북구 우치로 60 1층 102호",
            "phone": "0507-1347-3938",
            "baby_chair": "○",
            "lat": "35.1725979",
            "lon": "126.9125845"
        },
        {
            "category_id": "1",
            "name": "파파존스 전남대점",
            "address": "광주 북구 우치로90번길 8-6",
            "phone": "050-4454-0858",
            "baby_chair": "○",
            "lat": "35.1751646",
            "lon": "126.9130323"
        },
        {
            "category_id": "1",
            "name": "족발마을",
            "address": "광주 북구 서방로 7-1 족발마을",
            "phone": "062-262-5854",
            "baby_chair": "○",
            "lat": "35.1736954",
            "lon": "126.9140442"
        },
        {
            "category_id": "1",
            "name": "미스사이공",
            "address": "광주 북구 우치로 76 1층",
            "phone": "062-266-0420",
            "baby_chair": "○",
            "lat": "35.1741511",
            "lon": "126.9130029"
        },
        {
            "category_id": "1",
            "name": "사해일가",
            "address": "광주 북구 북문대로 171 지원빌딩 3층",
            "phone": "0507-1386-6688",
            "meeting_room": "○",
            "baby_chair": "○",
            "lat": "35.1835418",
            "lon": "126.8710964"
        },
        {
            "category_id": "1",
            "name": "갈능이곰능이 운암점",
            "address": "광주 북구 북문대로159번길 9",
            "phone": "0507-1419-5550",
            "meeting_room": "○",
            "baby_chair": "○",
            "lat": "35.1825492",
            "lon": "126.8715946"
        },
        {
            "category_id": "1",
            "name": "수완화덕생선구이",
            "address": "광주 북구 북문대로169번길 19",
            "phone": "062-962-7688",
            "baby_chair": "○",
            "lat": "35.1828398",
            "lon": "126.8705695"
        },
        {
            "category_id": "1",
            "name": "한스스시",
            "address": "광주 북구 북문대로 154",
            "phone": "0507-1400-1089",
            "baby_chair": "○",
            "lat": "35.1825531",
            "lon": "126.8726979"
        },
        {
            "category_id": "1",
            "name": "하랑은 운암점",
            "address": "광주 북구 북문대로 168 상가 A동 108, 109호",
            "phone": "062-522-1983",
            "baby_chair": "○",
            "lat": "35.1836348",
            "lon": "126.8721209"
        },
        {
            "category_id": "1",
            "name": "제주흑돈애 본점",
            "address": "광주 북구 북문대로169번길 19 1층",
            "phone": "062-511-5892",
            "meeting_room": "○",
            "play_room": "○",
            "baby_chair": "○",
            "lat": "35.1828398",
            "lon": "126.8705695"
        },
        {
            "category_id": "1",
            "name": "왕칼국수",
            "address": "광주 북구 서강로 92-3",
            "phone": "0507-1413-6323",
            "baby_chair": "○",
            "lat": "35.180004",
            "lon": "126.8726014"
        },
        {
            "category_id": "1",
            "name": "돈까스만드는남자 운암직영점",
            "address": "광주 북구 북문대로 88",
            "phone": "0507-1322-8369",
            "meeting_room": "○",
            "baby_chair": "○",
            "lat": "35.178229",
            "lon": "126.8776222"
        },
        {
            "category_id": "1",
            "name": "이헌한우 운암점",
            "address": "광주 북구 대자실로 30 지하1층",
            "phone": "062-529-8292",
            "baby_tableware": "○",
            "meeting_room": "○",
            "baby_chair": "○",
            "lat": "35.179547",
            "lon": "126.8740514"
        },
        {
            "category_id": "1",
            "name": "자연이야기",
            "address": "광주 북구 북문대로103번길 15",
            "phone": "062-522-8592",
            "meeting_room": "○",
            "lat": "35.1784554",
            "lon": "126.8752159"
        },
        {
            "category_id": "1",
            "name": "깐깐한족발 운암점",
            "address": "광주 북구 황계로55번길 28",
            "phone": "0507-1338-2292",
            "baby_chair": "○",
            "lat": "35.1781489",
            "lon": "126.8747272"
        },
        {
            "category_id": "1",
            "name": "대문",
            "address": "광주 북구 서강로82번길 33",
            "phone": "010-9532-4804",
            "baby_chair": "○",
            "lat": "35.1785692",
            "lon": "126.8734929"
        },
        {
            "category_id": "1",
            "name": "해실달실",
            "address": "광주 북구 동운로 230",
            "phone": "062-269-8008",
            "meeting_room": "○",
            "baby_chair": "○",
            "lat": "35.173907",
            "lon": "126.875205"
        },
        {
            "category_id": "1",
            "name": "다온 퓨전한정식",
            "address": "광주 북구 동운로201번길 68 1층",
            "phone": "062-526-0622",
            "meeting_room": "○",
            "baby_chair": "○",
            "lat": "35.1745602",
            "lon": "126.8751773"
        },
        {
            "category_id": "1",
            "name": "1865이탈리안레스토랑",
            "address": "광주 북구 동운로201번길 13-8 트라움실 1층 103동",
            "phone": "062-511-1865",
            "baby_chair": "○",
            "lat": "35.174975",
            "lon": "126.8721731"
        },
        {
            "category_id": "1",
            "name": "대자",
            "address": "광주 북구 대자로 17 대자아구찜",
            "phone": "062-527-7776",
            "meeting_room": "○",
            "baby_chair": "○",
            "lat": "35.1737071",
            "lon": "126.8747412"
        },
        {
            "category_id": "1",
            "name": "효정",
            "address": "광주 북구 동운로 231",
            "phone": "062-363-0558",
            "meeting_room": "○",
            "lat": "35.1742498",
            "lon": "126.8753298"
        },
        {
            "category_id": "1",
            "name": "찜나라",
            "address": "광주 북구 대자로 48-2",
            "phone": "0507-1388-2221",
            "meeting_room": "○",
            "baby_chair": "○",
            "lat": "35.1732827",
            "lon": "126.8775705"
        },
        {
            "category_id": "1",
            "name": "일칠오도씨",
            "address": "광주 북구 북문대로 171 (운암동) 그랑시아웨딩홀옆 A마트 2층",
            "phone": "062-373-1009",
            "baby_tableware": "○",
            "baby_chair": "○",
            "lat": "35.1830429",
            "lon": "126.8712098"
        },
        {
            "category_id": "1",
            "name": "포베이 운암점",
            "address": "광주 북구 북문대로 131",
            "phone": "062-511-1255",
            "baby_tableware": "○",
            "baby_chair": "○",
            "lat": "35.1805917",
            "lon": "126.8737636"
        },
        {
            "category_id": "1",
            "name": "남다른감자탕 호남본점",
            "address": "광주 북구 하남대로 711",
            "phone": "0507-1440-2114",
            "play_room": "○",
            "baby_chair": "○",
            "lat": "35.1718822",
            "lon": "126.8706245"
        },
        {
            "category_id": "1",
            "name": "약수한방삼계탕",
            "address": "광주 북구 북문대로 173 1층",
            "phone": "0507-1338-7700",
            "meeting_room": "○",
            "baby_chair": "○",
            "lat": "35.1838303",
            "lon": "126.8708534"
        },
        {
            "category_id": "1",
            "name": "너와집",
            "address": "광주 북구 북문대로 154",
            "phone": "062-514-8579",
            "baby_chair": "○",
            "lat": "35.1825531",
            "lon": "126.8726979"
        },
        {
            "category_id": "1",
            "name": "우미관",
            "address": "광주 북구 서강로 75-2",
            "phone": "062-531-3352",
            "meeting_room": "○",
            "play_room": "○",
            "lat": "35.1788744",
            "lon": "126.8700667"
        },
        {
            "category_id": "1",
            "name": "원조 용전 식육회관",
            "address": "광주 북구 삼각월산길 2-1",
            "phone": "062-575-3320",
            "meeting_room": "○",
            "lat": "35.2048935",
            "lon": "126.9022988"
        },
        {
            "category_id": "1",
            "name": "황칠나라",
            "address": "광주 북구 우치로422번길 14",
            "phone": "062-576-7176",
            "meeting_room": "○",
            "lat": "35.2033955",
            "lon": "126.9028077"
        },
        {
            "category_id": "1",
            "name": "예촌",
            "address": "광주 북구 설죽로471번길 51",
            "phone": "062-573-7766",
            "meeting_room": "○",
            "lat": "35.2007879",
            "lon": "126.894197"
        },
        {
            "category_id": "1",
            "name": "종가아귀찜",
            "address": "광주 북구 설죽로471번길 5 1층 종가아귀찜",
            "phone": "062-573-3113",
            "meeting_room": "○",
            "baby_chair": "○",
            "lat": "35.200998",
            "lon": "126.8980641"
        },
        {
            "category_id": "1",
            "name": "채선당 광주일곡점",
            "address": "광주 북구 설죽로471번길 12-2",
            "phone": "062-571-9012",
            "meeting_room": "○",
            "lat": "35.2011452",
            "lon": "126.8979929"
        },
        {
            "category_id": "1",
            "name": "월하리",
            "address": "광주 북구 설죽로471번길 8",
            "phone": "0507-1424-9924",
            "meeting_room": "○",
            "play_room": "○",
            "lat": "35.2010735",
            "lon": "126.898342"
        },
        {
            "category_id": "1",
            "name": "압록매운탕",
            "address": "광주 북구 설죽로415번길 5",
            "phone": "0507-1304-4101",
            "meeting_room": "○",
            "lat": "35.1959512",
            "lon": "126.899551"
        },
        {
            "category_id": "1",
            "name": "즐거울락",
            "address": "광주 북구 설죽로 416 상가 1동 101호",
            "phone": "0507-1385-7555",
            "baby_chair": "○",
            "lat": "35.19617",
            "lon": "126.9010722"
        },
        {
            "category_id": "1",
            "name": "김연수 해물나라",
            "address": "광주 북구 모룡대길 47",
            "phone": "062-571-8400",
            "play_room": "○",
            "baby_chair": "○",
            "lat": "35.2161392",
            "lon": "126.8956736"
        },
        {
            "category_id": "1",
            "name": "재주당 본점",
            "address": "광주 북구 일곡마을로 148 1층",
            "phone": "0507-1377-0053",
            "baby_chair": "○",
            "lat": "35.2093345",
            "lon": "126.890916"
        },
        {
            "category_id": "1",
            "name": "꽃잎두장",
            "address": "광주 북구 일곡마을로 170",
            "phone": "062-576-2566",
            "baby_chair": "○",
            "lat": "35.2102429",
            "lon": "126.8925774"
        },
        {
            "category_id": "1",
            "name": "하라규동",
            "address": "광주 북구 일곡택지로 77",
            "phone": "062-573-0593",
            "baby_chair": "○",
            "lat": "35.2086255",
            "lon": "126.8941127"
        },
        {
            "category_id": "1",
            "name": "데이지더비스트로",
            "address": "광주 북구 일곡마을로 152",
            "phone": "062-576-0700",
            "meeting_room": "○",
            "baby_chair": "○",
            "lat": "35.2095693",
            "lon": "126.8916222"
        },
        {
            "category_id": "1",
            "name": "서태후",
            "address": "광주 북구 일곡로 45-11",
            "phone": "062-572-7774",
            "meeting_room": "○",
            "lat": "35.2085365",
            "lon": "126.893354"
        },
        {
            "category_id": "1",
            "name": "빈스키친",
            "address": "광주 북구 일곡마을로 168",
            "phone": "062-251-0335",
            "baby_chair": "○",
            "lat": "35.2102566",
            "lon": "126.8923971"
        },
        {
            "category_id": "1",
            "name": "오늘부터애간장",
            "address": "광주 북구 일곡마을로 121",
            "phone": "062-571-0399",
            "baby_chair": "○",
            "lat": "35.2074488",
            "lon": "126.8897324"
        },
        {
            "category_id": "1",
            "name": "AGIO45",
            "address": "광주 북구 일곡로 45-1",
            "phone": "0507-1363-4545",
            "baby_chair": "○",
            "lat": "35.2079634",
            "lon": "126.893175"
        },
        {
            "category_id": "1",
            "name": "그리너리키친",
            "address": "광주 북구 일곡마을로116번길 33 1층",
            "phone": "0507-1385-0026",
            "baby_chair": "○",
            "lat": "35.2070988",
            "lon": "126.892595"
        },
        {
            "category_id": "1",
            "name": "망치아저씨",
            "address": "광주 북구 일곡마을로 7",
            "phone": "0507-1342-8855",
            "baby_chair": "○",
            "lat": "35.2060637",
            "lon": "126.9003447"
        },
        {
            "category_id": "1",
            "name": "깐깐한 족발 일곡점",
            "address": "광주 북구 설죽로 518-7",
            "phone": "062-576-5550",
            "baby_chair": "○",
            "lat": "35.2055323",
            "lon": "126.8987013"
        },
        {
            "category_id": "1",
            "name": "초짓남",
            "address": "광주 북구 설죽로 506-10",
            "phone": "062-573-2252",
            "meeting_room": "○",
            "baby_chair": "○",
            "lat": "35.2043378",
            "lon": "126.8992786"
        },
        {
            "category_id": "1",
            "name": "신쭈꾸미 일곡본점",
            "address": "광주 북구 송해로 70-2",
            "phone": "0507-1324-5275",
            "baby_chair": "○",
            "lat": "35.2045527",
            "lon": "126.8998061"
        },
        {
            "category_id": "1",
            "name": "하나에 초밥",
            "address": "광주 북구 설죽로 502 1층",
            "phone": "0507-1478-2340",
            "meeting_room": "○",
            "lat": "35.2039695",
            "lon": "126.8986257"
        },
        {
            "category_id": "1",
            "name": "메밀정원",
            "address": "광주 북구 일곡마을로 173-1",
            "phone": "062-573-0900",
            "meeting_room": "○",
            "baby_chair": "○",
            "lat": "35.2105342",
            "lon": "126.8931863"
        },
        {
            "category_id": "1",
            "name": "The 자반",
            "address": "광주 북구 일곡마을로 172",
            "phone": "062-572-2004",
            "baby_chair": "○",
            "lat": "35.210224",
            "lon": "126.8927731"
        },
        {
            "category_id": "1",
            "name": "파리에 다녀온 치킨 일곡점",
            "address": "광주 북구 일곡택지로 53",
            "phone": "062-575-1412",
            "baby_chair": "○",
            "lat": "35.2065132",
            "lon": "126.8940766"
        },
        {
            "category_id": "1",
            "name": "일미닭갈비파전 일곡점",
            "address": "광주 북구 설죽로 496-7",
            "phone": "0507-1433-2238",
            "baby_chair": "○",
            "lat": "35.2037054",
            "lon": "126.8995144"
        },
        {
            "category_id": "1",
            "name": "풍요일식",
            "address": "광주 북구 양일로305번길 8",
            "phone": "062-573-4402",
            "meeting_room": "○",
            "lat": "35.2031023",
            "lon": "126.8972219"
        },
        {
            "category_id": "1",
            "name": "금성칡냉면 일곡점",
            "address": "광주 북구 송해로 77",
            "phone": "062-574-2354",
            "baby_chair": "○",
            "lat": "35.2051374",
            "lon": "126.8991788"
        },
        {
            "category_id": "1",
            "name": "꽃씨와 도둑",
            "address": "광주 북구 송해로 82-8",
            "phone": "062-574-3080",
            "baby_chair": "○",
            "lat": "35.2057015",
            "lon": "126.8997621"
        },
        {
            "category_id": "1",
            "name": "영빈가든",
            "address": "광주 북구 도동로 30-11",
            "phone": "062-268-0990",
            "meeting_room": "○",
            "lat": "35.191891",
            "lon": "126.9384892"
        },
        {
            "category_id": "1",
            "name": "메이",
            "address": "광주 북구 동문대로 280 화물터미널136호",
            "phone": "0507-1360-1222",
            "meeting_room": "○",
            "baby_chair": "○",
            "lat": "35.1869691",
            "lon": "126.9345445"
        },
        {
            "category_id": "1",
            "name": "조은고기먹는날",
            "address": "광주 북구 동문대로248번길 39 각화동종합상가",
            "phone": "062-267-3311",
            "meeting_room": "○",
            "baby_chair": "○",
            "lat": "35.1833218",
            "lon": "126.9371758"
        },
        {
            "category_id": "1",
            "name": "꽃보다 힐링구이",
            "address": "광주 북구 각화대로13번길 3",
            "phone": "062-266-5388",
            "meeting_room": "○",
            "play_room": "○",
            "baby_chair": "○",
            "lat": "35.1819344",
            "lon": "126.9324397"
        },
        {
            "category_id": "1",
            "name": "나주곰통 정가네",
            "address": "광주 북구 서하로 465",
            "phone": "062-261-7704",
            "meeting_room": "○",
            "lat": "35.1815204",
            "lon": "126.9294457"
        },
        {
            "category_id": "1",
            "name": "자화육",
            "address": "광주 북구 군왕로208번길 30 1층",
            "phone": "062-264-1372",
            "meeting_room": "○",
            "lat": "35.1787058",
            "lon": "126.9374849"
        },
        {
            "category_id": "1",
            "name": "명태어장 임동점",
            "address": "광주 북구 자동차로 31",
            "phone": "0507-1375-1300",
            "meeting_room": "○",
            "lat": "35.1622826",
            "lon": "126.9006083"
        },
        {
            "category_id": "1",
            "name": "콩샌 임동점",
            "address": "광주 북구 경양로 43 1층",
            "phone": "0507-1327-0327",
            "meeting_room": "○",
            "lat": "35.1638274",
            "lon": "126.8970279"
        },
        {
            "category_id": "1",
            "name": "임서방 숯불갈비",
            "address": "광주 북구 서림로 85-1",
            "phone": "062-523-9222",
            "meeting_room": "○",
            "lat": "35.164013",
            "lon": "126.8969156"
        },
        {
            "category_id": "1",
            "name": "진식당",
            "address": "광주 북구 중흥로 88",
            "phone": "062-515-3779",
            "meeting_room": "○",
            "lat": "35.1635845",
            "lon": "126.9038344"
        },
        {
            "category_id": "1",
            "name": "완도청정바다",
            "address": "광주 북구 태봉로 67",
            "phone": "062-524-9900",
            "meeting_room": "○",
            "lat": "35.1629577",
            "lon": "126.9056846"
        },
        {
            "category_id": "1",
            "name": "송원회관",
            "address": "광주 북구 경양로135번길 29",
            "phone": "062-529-3250",
            "meeting_room": "○",
            "lat": "35.162557",
            "lon": "126.9071334"
        },
        {
            "category_id": "1",
            "name": "풍남옥 광주역점",
            "address": "광주 북구 태봉로 72",
            "phone": "062-531-5667",
            "baby_chair": "○",
            "lat": "35.1628874",
            "lon": "126.9065867"
        },
        {
            "category_id": "1",
            "name": "옥천면옥 본점",
            "address": "광주 북구 무등로 144",
            "phone": "062-528-3888",
            "meeting_room": "○",
            "baby_chair": "○",
            "lat": "35.1664644",
            "lon": "126.8994577"
        },
        {
            "category_id": "1",
            "name": "전대밤바다",
            "address": "광주 북구 서양로 33",
            "phone": "0507-1300-9054",
            "meeting_room": "○",
            "lat": "35.1706528",
            "lon": "126.9051831"
        },
        {
            "category_id": "1",
            "name": "해송",
            "address": "광주 북구 서양로41번길 9",
            "phone": "062-523-0204",
            "meeting_room": "○",
            "lat": "35.1707915",
            "lon": "126.9059716"
        },
        {
            "category_id": "1",
            "name": "오우가",
            "address": "광주 북구 서양로41번길 19",
            "phone": "062-524-3337",
            "meeting_room": "○",
            "lat": "35.1712174",
            "lon": "126.9060229"
        },
        {
            "category_id": "1",
            "name": "이비가 짬뽕 전남대점",
            "address": "광주 북구 용봉로 10",
            "phone": "062-511-5576",
            "baby_chair": "○",
            "lat": "35.1717839",
            "lon": "126.8979194"
        },
        {
            "category_id": "1",
            "name": "이서방회사랑생선구이",
            "address": "광주 북구 청계로 5",
            "phone": "062-515-9288",
            "meeting_room": "○",
            "baby_chair": "○",
            "lat": "35.1743307",
            "lon": "126.8950867"
        },
        {
            "category_id": "1",
            "name": "황금리브런치",
            "address": "광주 북구 용봉택지로 51",
            "phone": "062-528-7430",
            "baby_chair": "○",
            "lat": "35.1787788",
            "lon": "126.8921096"
        },
        {
            "category_id": "1",
            "name": "춘하추동오리탕",
            "address": "광주 북구 경양로 132",
            "phone": "062-524-6226",
            "meeting_room": "○",
            "lat": "35.1611668",
            "lon": "126.9063068"
        },
        {
            "category_id": "1",
            "name": "무등 오리탕",
            "address": "광주 북구 중가로37번길 30-4",
            "phone": "062-529-4442",
            "meeting_room": "○",
            "baby_chair": "○",
            "lat": "35.1610035",
            "lon": "126.905185"
        },
        {
            "category_id": "1",
            "name": "장성오리탕별관",
            "address": "광주 북구 경양로 130",
            "meeting_room": "○",
            "lat": "35.1612367",
            "lon": "126.9060556"
        },
        {
            "category_id": "1",
            "name": "호시",
            "address": "광주 북구 버들로19번길 31 1층",
            "phone": "010-4002-6550",
            "baby_chair": "○",
            "lat": "35.1583648",
            "lon": "126.9076417"
        },
        {
            "category_id": "1",
            "name": "유동나주곰탕",
            "address": "광주 북구 금재로 23",
            "phone": "062-513-3393",
            "meeting_room": "○",
            "lat": "35.157856",
            "lon": "126.9063939"
        },
        {
            "category_id": "1",
            "name": "만복식당",
            "address": "광주 북구 버들로19번길 19",
            "phone": "062-419-9633",
            "meeting_room": "○",
            "lat": "35.1582406",
            "lon": "126.9081614"
        },
        {
            "category_id": "1",
            "name": "함양옻닭",
            "address": "광주 북구 금재로29번길 13",
            "phone": "062-515-5757",
            "meeting_room": "○",
            "lat": "35.1582465",
            "lon": "126.9072152"
        },
        {
            "category_id": "1",
            "name": "효초밥참치 두암점",
            "address": "광주 북구 밤실로 163-11",
            "phone": "062-252-3550",
            "meeting_room": "○",
            "lat": "35.1615989",
            "lon": "126.9342509"
        },
        {
            "category_id": "1",
            "name": "두암골풍천장어",
            "address": "광주 북구 밤실로167번길 2",
            "phone": "0507-1358-1331",
            "baby_chair": "○",
            "lat": "35.1623413",
            "lon": "126.9345245"
        },
        {
            "category_id": "1",
            "name": "바른초밥",
            "address": "광주 북구 밤실로 163-5",
            "phone": "062-267-9232",
            "meeting_room": "○",
            "lat": "35.1617147",
            "lon": "126.9346084"
        },
        {
            "category_id": "1",
            "name": "이비가 짬뽕 두암점",
            "address": "광주 북구 필문대로 101",
            "phone": "062-434-1999",
            "baby_chair": "○",
            "lat": "35.161665",
            "lon": "126.9301944"
        },
        {
            "category_id": "1",
            "name": "죽이야기 두암타운점",
            "address": "광주 북구 밤실로 163-11",
            "phone": "062-268-6233",
            "baby_chair": "○",
            "lat": "35.1615989",
            "lon": "126.9342509"
        },
        {
            "category_id": "1",
            "name": "대청마루",
            "address": "광주 북구 군왕로8번길 17",
            "phone": "010-7932-9638",
            "meeting_room": "○",
            "lat": "35.1618342",
            "lon": "126.9306784"
        },
        {
            "category_id": "1",
            "name": "깔롱진파스타",
            "address": "광주 북구 군왕로8번길 21",
            "phone": "062-265-2536",
            "baby_tableware": "○",
            "lat": "35.1615408",
            "lon": "126.9309358"
        },
        {
            "category_id": "1",
            "name": "야사뽕잎칼국수",
            "address": "광주 북구 문화소통로 252",
            "phone": "062-262-3306",
            "meeting_room": "○",
            "baby_chair": "○",
            "lat": "35.1810801",
            "lon": "126.9213765"
        },
        {
            "category_id": "1",
            "name": "득량만횟집",
            "address": "광주 북구 동문대로97번길 81",
            "phone": "062-265-2452",
            "meeting_room": "○",
            "lat": "35.1736429",
            "lon": "126.9201793"
        },
        {
            "category_id": "1",
            "name": "고흥회수산",
            "address": "광주 북구 서방로63번길 24",
            "phone": "0507-1476-2240",
            "meeting_room": "○",
            "lat": "35.173372",
            "lon": "126.9203223"
        },
        {
            "category_id": "1",
            "name": "매력한우명품관서방점",
            "address": "광주 북구 서방로 83",
            "phone": "062-264-7788",
            "meeting_room": "○",
            "lat": "35.1718225",
            "lon": "126.9222398"
        },
        {
            "category_id": "1",
            "name": "별미해장국",
            "address": "광주 북구 동문대로204번길 36",
            "phone": "010-6600-0089",
            "baby_chair": "○",
            "lat": "35.1797569",
            "lon": "126.9320631"
        },
        {
            "category_id": "1",
            "name": "광신보리밥",
            "address": "광주 북구 두리봉길 2-1",
            "phone": "062-264-1811",
            "meeting_room": "○",
            "lat": "35.175866",
            "lon": "126.9314893"
        },
        {
            "category_id": "1",
            "name": "무등콩물",
            "address": "광주 북구 면앙로155번길 7 무등콩물",
            "phone": "062-446-7377",
            "meeting_room": "○",
            "lat": "35.1764937",
            "lon": "126.9287796"
        },
        {
            "category_id": "1",
            "name": "신락원 두암점",
            "address": "광주 북구 동문대로 152",
            "phone": "062-268-6848",
            "meeting_room": "○",
            "baby_chair": "○",
            "lat": "35.1760176",
            "lon": "126.9280402"
        },
        {
            "category_id": "1",
            "name": "배가네 동태탕찜전문점 두암점",
            "address": "광주 북구 삼정로66번길 91-1",
            "phone": "062-262-7732",
            "meeting_room": "○",
            "lat": "35.1705309",
            "lon": "126.937971"
        },
        {
            "category_id": "1",
            "name": "뼈통묵은지감자탕",
            "address": "광주 북구 탁영로 8",
            "phone": "0504-0544-0280",
            "meeting_room": "○",
            "play_room": "○",
            "lat": "35.1663664",
            "lon": "126.9335466"
        },
        {
            "category_id": "1",
            "name": "해담촌",
            "address": "광주 북구 참판로 91",
            "phone": "062-268-6692",
            "meeting_room": "○",
            "lat": "35.1659959",
            "lon": "126.9329247"
        },
        {
            "category_id": "1",
            "name": "대한수산물백화점",
            "address": "광주 북구 탁영로 5",
            "phone": "062-261-8533",
            "meeting_room": "○",
            "lat": "35.1667307",
            "lon": "126.9331489"
        },
        {
            "category_id": "1",
            "name": "람바다 본점",
            "address": "광주 북구 갈마로 57",
            "phone": "062-261-8085",
            "meeting_room": "○",
            "baby_chair": "○",
            "lat": "35.1620237",
            "lon": "126.9368446"
        },
        {
            "category_id": "1",
            "name": "오얏리 돌솥밥",
            "address": "광주 북구 밤실로 178",
            "phone": "062-267-8502",
            "stroller": "○",
            "lat": "35.1632905",
            "lon": "126.9346251"
        },
        {
            "category_id": "1",
            "name": "김부정 닭집",
            "address": "광주 북구 밤실로 187-2",
            "phone": "062-263-6624",
            "baby_chair": "○",
            "lat": "35.1639951",
            "lon": "126.9336752"
        },
        {
            "category_id": "1",
            "name": "이차돌 두암점",
            "address": "광주 북구 밤실로 191",
            "phone": "062-412-0008",
            "stroller": "○",
            "baby_chair": "○",
            "lat": "35.1641692",
            "lon": "126.9335874"
        },
        {
            "category_id": "1",
            "name": "대암정",
            "address": "광주 북구 면앙로 165",
            "phone": "062-267-9293",
            "meeting_room": "○",
            "play_room": "○",
            "lat": "35.1775727",
            "lon": "126.9239741"
        },
        {
            "category_id": "1",
            "name": "두암골 설렁탕",
            "address": "광주 북구 서방로107번길 88",
            "phone": "062-262-0786",
            "meeting_room": "○",
            "lat": "35.173797",
            "lon": "126.9269605"
        },
        {
            "category_id": "1",
            "name": "은조루 두암점",
            "address": "광주 북구 삼정로 97-1",
            "phone": "062-269-3357",
            "baby_chair": "○",
            "lat": "35.1708086",
            "lon": "126.9372561"
        },
        {
            "category_id": "1",
            "name": "깐깐한 족발 두암점",
            "address": "광주 북구 밤실로 180",
            "phone": "062-266-5868",
            "meeting_room": "○",
            "lat": "35.1633849",
            "lon": "126.9343912"
        },
        {
            "category_id": "1",
            "name": "고기꾸는 놈",
            "address": "광주 북구 서방로107번길 92",
            "phone": "062-265-5492",
            "baby_chair": "○",
            "lat": "35.1738967",
            "lon": "126.9270251"
        },
        {
            "category_id": "1",
            "name": "한백년 식당",
            "address": "광주 북구 민주로 164",
            "phone": "010-3608-4391",
            "meeting_room": "○",
            "lat": "35.2316783",
            "lon": "126.9395278"
        },
        {
            "category_id": "1",
            "name": "축협 한우프라자",
            "address": "광주 북구 민주로 64",
            "phone": "062-266-9289",
            "baby_chair": "○",
            "lat": "35.2210885",
            "lon": "126.9487101"
        },
        {
            "category_id": "1",
            "name": "서진주 한정식",
            "address": "광주 북구 석곡로 630",
            "phone": "062-263-3335",
            "meeting_room": "○",
            "lat": "35.2147941",
            "lon": "126.9497402"
        },
        {
            "category_id": "1",
            "name": "무등골 장어구이",
            "address": "광주 북구 석곡로 622",
            "phone": "062-262-3327",
            "meeting_room": "○",
            "lat": "35.2142203",
            "lon": "126.9493731"
        },
        {
            "category_id": "1",
            "name": "감나무집",
            "address": "광주 북구 석곡로 544",
            "phone": "062-266-1823",
            "meeting_room": "○",
            "lat": "35.20736",
            "lon": "126.9511483"
        },
        {
            "category_id": "1",
            "name": "무돌주막",
            "address": "광주 북구 신촌샛강길 120-5",
            "phone": "062-266-6086",
            "meeting_room": "○",
            "lat": "35.1750813",
            "lon": "126.9606409"
        },
        {
            "category_id": "1",
            "name": "돌담게장백반",
            "address": "광주 북구 금곡한고샅길 4",
            "phone": "062-265-1183",
            "meeting_room": "○",
            "lat": "35.1699809",
            "lon": "126.99914"
        },
        {
            "category_id": "1",
            "name": "동산가든",
            "address": "광주 북구 송강로 242",
            "phone": "062-266-5599",
            "meeting_room": "○",
            "lat": "35.1708376",
            "lon": "126.9983106"
        },
        {
            "category_id": "1",
            "name": "나룻터가든",
            "address": "광주 북구 무등로 1024",
            "phone": "062-266-5028",
            "meeting_room": "○",
            "lat": "35.1545165",
            "lon": "126.9693458"
        },
        {
            "category_id": "1",
            "name": "산장가는 길",
            "address": "광주 북구 무등로 1022 산장가는길",
            "phone": "0507-1373-4999",
            "meeting_room": "○",
            "lat": "35.1545202",
            "lon": "126.9693679"
        },
        {
            "category_id": "1",
            "name": "감모루",
            "address": "광주 북구 무등로 1021-3",
            "phone": "062-266-5913",
            "meeting_room": "○",
            "lat": "35.1550281",
            "lon": "126.9699354"
        },
        {
            "category_id": "1",
            "name": "청수산장",
            "address": "광주 북구 무등로 1033",
            "phone": "062-266-5893",
            "meeting_room": "○",
            "lat": "35.1537122",
            "lon": "126.9698433"
        },
        {
            "category_id": "1",
            "name": "무등산 가자",
            "address": "광주 북구 무등로 1540-1",
            "phone": "062-266-2514",
            "meeting_room": "○",
            "lat": "35.1447644",
            "lon": "126.9881741"
        },
        {
            "category_id": "1",
            "name": "신성산장",
            "address": "광주 북구 무등로 1552",
            "phone": "0507-1311-8778",
            "meeting_room": "○",
            "lat": "35.1433851",
            "lon": "126.9898822"
        },
        {
            "category_id": "1",
            "name": "그때 그 산장",
            "address": "광주 북구 무등로 1554",
            "phone": "062-266-4181",
            "meeting_room": "○",
            "lat": "35.1433851",
            "lon": "126.9898822"
        },
        {
            "category_id": "1",
            "name": "팽이와 꼬꼬",
            "address": "광주 북구 가사문학로 954",
            "phone": "062-263-1211",
            "meeting_room": "○",
            "lat": "35.1802776",
            "lon": "127.012666"
        },
        {
            "category_id": "1",
            "name": "덕장진땡이 문흥점",
            "address": "광주 북구 서하로355번길 6",
            "phone": "062-265-2600",
            "meeting_room": "○",
            "lat": "35.1869533",
            "lon": "126.9197321"
        },
        {
            "category_id": "1",
            "name": "미스터 홍게",
            "address": "광주 북구 대천로 125",
            "phone": "0507-1444-3338",
            "baby_chair": "○",
            "lat": "35.1857576",
            "lon": "126.9199862"
        },
        {
            "category_id": "1",
            "name": "족발집배원",
            "address": "광주 북구 대천로 124-5 1층",
            "phone": "0507-1493-6009",
            "meeting_room": "○",
            "baby_chair": "○",
            "lat": "35.1854018",
            "lon": "126.9207265"
        },
        {
            "category_id": "1",
            "name": "불타는 복돼지",
            "address": "광주 북구 대천로 124-9",
            "phone": "062-265-2220",
            "meeting_room": "○",
            "baby_chair": "○",
            "lat": "35.1852303",
            "lon": "126.921001"
        },
        {
            "category_id": "1",
            "name": "북촌삼대갈비 문흥점",
            "address": "광주 북구 서하로453번길 5",
            "phone": "0507-1414-0502",
            "meeting_room": "○",
            "lat": "35.1822358",
            "lon": "126.9286985"
        },
        {
            "category_id": "1",
            "name": "새물 문흥골 곰탕",
            "address": "광주 북구 문화소통로 317",
            "phone": "062-267-2133",
            "meeting_room": "○",
            "lat": "35.1824094",
            "lon": "126.9281495"
        },
        {
            "category_id": "1",
            "name": "역삼동 천하돈까스",
            "address": "광주 북구 면앙로121번길 69",
            "phone": "0507-1315-8159",
            "meeting_room": "○",
            "baby_chair": "○",
            "lat": "35.1801464",
            "lon": "126.9264687"
        },
        {
            "category_id": "1",
            "name": "코끼리 손짜장 문흥점",
            "address": "광주 북구 호동로 67",
            "phone": "062-262-4478",
            "meeting_room": "○",
            "lat": "35.1777188",
            "lon": "126.9178386"
        },
        {
            "category_id": "1",
            "name": "창평국밥",
            "address": "광주 북구 천지인로 103",
            "phone": "062-267-3110",
            "meeting_room": "○",
            "baby_chair": "○",
            "lat": "35.1842519",
            "lon": "126.9100808"
        },